osm_id,name,lat,lon,elevation
11831393364,"Green Crag",54.506537,-3.233164,508.000000
11808256275,"Bonfire Hill",54.645562,-2.920934,305.000000
11769024657,"Rowell Heights",54.241809,-2.751394,62.000000
11692060529,"Sandale Hill",54.748064,-3.140729,370.000000
11692060528,"Bassenthwaite Hill",54.688646,-3.188027,258.000000
11521588341,"Whitbarrow",54.264370,-2.848596,195.000000
11298131241,"Top o' Selside",54.318017,-3.064162,328.000000
11297436771,"Muncaster Fell",54.375789,-3.363176,219.000000
11231117834,"Unknown",54.196835,-2.929918,181.000000
11217403254,"Gallows Howe",54.425515,-2.905666,183.000000
11210031847,"Banner Riggs",54.250423,-2.758682,93.000000
11692060531,"Greystoke Forest",54.695495,-2.922573,361.000000
11192972479,"Gowbarrow Fell Summit",54.587197,-2.918662,472.000000
11183815759,"Latrigg",54.709059,-3.172074,314.000000
11088855423,"Graystones (Wainwright)",54.627974,-3.277467,447.000000
11088725738,"Armboth Fell (Wainwright)",54.532044,-3.089633,468.000000
10979271642,"Park Hill",54.236337,-2.782738,34.000000
10887406626,"Harberwain Rigg",54.525201,-2.623126,352.000000
10821364177,"Skellaw Hill",54.533996,-2.687145,264.000000
10760814677,"Herd Hill",54.948385,-3.230898,12.000000
10595251051,"Beggarside Hill",54.238057,-2.757502,70.000000
10593841615,"Barrow Wife Hill",54.258339,-2.918787,217.000000
10593800528,"Cop o' Cow Hill",54.267328,-2.933881,216.000000
10576240686,"Bonfire Hill",54.249492,-2.925708,202.000000
10316603218,"Unknown",54.391326,-2.787377,388.000000
10312752553,"Cocklaw Fell",54.427315,-2.802158,361.000000
10304154949,"High Forest",54.521710,-2.785312,425.000000
10287205477,"Unknown",54.529916,-2.765985,391.000000
10287191702,"Unknown",54.527409,-2.770707,421.000000
10269243541,"Unknown",54.288437,-2.919753,218.000000
10266953034,"Gummer's How",54.288350,-2.937888,311.000000
10252868448,"Unknown",54.474722,-2.305319,-inf
10237449974,"Collin Hill",54.467480,-2.284259,-inf
10242044476,"Bleatapow Hill",54.462741,-2.266795,-inf
10227831176,"Unknown",54.364759,-2.863985,206.000000
10219472751,"Unknown",54.281095,-2.992388,227.000000
10219291682,"Rusland Heights",54.283268,-2.995864,233.000000
10219284943,"Finsthwaite Heights",54.283846,-2.982902,212.000000
10556867665,"Unknown",54.340713,-2.697860,313.000000
10177829297,"Unknown",54.323593,-2.790055,233.000000
10165833029,"Clints Crags",54.705412,-3.305995,244.000000
10154322395,"Unknown",54.375208,-2.974692,205.000000
10127766675,"Old Parrock Hill",54.303918,-3.051110,251.000000
10071006684,"Cockpit Hill",54.348626,-2.836946,145.000000
10065917762,"Rulbuts Hill",54.334114,-2.913293,167.000000
11192972482,"Salmond's Hill",54.608202,-2.845636,287.000000
10065900911,"Unknown",54.337154,-2.911825,157.000000
10057963063,"Lamb Pasture",54.412108,-2.719229,356.000000
9985551299,"Hollowscar Hill End",54.323222,-3.210240,305.000000
9974589537,"Castle How",54.318188,-3.247603,126.000000
9971964074,"Hard Hill",54.323905,-3.253717,190.000000
9950986445,"Winder Hill",54.547769,-2.771336,312.000000
9950908767,"Unknown",54.553527,-2.757001,239.000000
10945803992,"Unknown",54.705844,-3.302515,230.000000
9913258851,"Unknown",54.589783,-3.381384,233.000000
9900030981,"High Cap",54.701795,-2.524501,544.000000
9893655694,"Winter Crag",54.556938,-2.882715,314.000000
11231117835,"Unknown",54.200136,-2.928094,197.000000
9875839755,"Breaskay Hill",54.326960,-2.466184,281.000000
9863423442,"Unknown",54.320591,-2.353154,395.000000
9840712416,"Bent Hill",54.427107,-2.390677,328.000000
9838797656,"High Park",54.576940,-3.482171,245.000000
9791959236,"Harrop Pike",54.463200,-2.771719,634.000000
9785038698,"Stank Hill",54.434761,-2.318638,-inf
9761426144,"Unknown",54.433246,-2.349520,249.000000
9743757460,"Unknown",54.862051,-2.680796,481.000000
9743757459,"Unknown",54.865226,-2.682142,479.000000
9669652780,"Coomb Height",54.684783,-3.071095,627.000000
9589421943,"Unknown",54.905988,-2.615546,542.000000
9589198138,"Hespeck Raise",54.876323,-2.688969,425.000000
9559996046,"Meathaw Hill",54.776844,-2.500707,491.000000
9516211445,"Cold Fell",54.893864,-2.616252,618.000000
9510968779,"Heversham Head",54.247882,-2.765520,126.000000
9497578336,"Great Dow Hill",54.784305,-2.488160,490.000000
9474095856,"Rusby Hill",54.707402,-2.546956,346.000000
9473819070,"Green Hill",54.750436,-2.398110,473.000000
9441972528,"Green Fell",54.719563,-2.514808,739.000000
9441877975,"Round Hill",54.722972,-2.398073,676.000000
9441865354,"Unknown",54.719491,-2.398242,683.000000
9439548715,"The Calf",54.367926,-2.513534,673.000000
9439266405,"Hard Rigg Edge",54.742779,-2.530939,627.000000
9439259245,"Brown Hill",54.715094,-2.526160,667.000000
9439257571,"Bullman Hills",54.728594,-2.459068,599.000000
9439083818,"Hound Hill",54.751720,-2.463043,562.000000
9415777880,"Old High",54.405690,-2.667429,454.000000
9415771268,"Unknown",54.401009,-2.659441,402.000000
9415771267,"439",54.396771,-2.630391,430.000000
9415771248,"Belt Howe",54.412998,-2.635805,402.000000
9404308146,"Black Band",54.754992,-2.421108,566.000000
9404288995,"Pikeman Hill",54.738009,-2.431033,623.000000
9404282812,"Meg Moffat's Hill",54.742265,-2.432721,602.000000
9391605644,"Melmerby Fell",54.735816,-2.541744,710.000000
9391605547,"Knapside Hill",54.739727,-2.550856,681.000000
9391601958,"Little Knapside Hill",54.746738,-2.553786,650.000000
9391601957,"Fiends Fell",54.759518,-2.556073,630.000000
9385410100,"Tottle Hill",54.682154,-2.524711,281.000000
9385410054,"Barons Hill",54.683831,-2.540483,220.000000
9337550076,"Binsey",54.708798,-3.204191,443.000000
9159986887,"Lank Rigg",54.494755,-3.403996,538.000000
9085686879,"Sickers Fell",54.343065,-2.508695,498.000000
9083583126,"Seat Knott",54.352201,-2.546246,334.000000
10925811281,"Unknown",54.274196,-3.308161,464.000000
9047550835,"Roger Howe",54.421119,-2.589904,314.000000
9037197088,"High Knott",54.419098,-2.475618,394.000000
9028101708,"Low Knott",54.422945,-2.471726,362.000000
8987308179,"Peatmire Hill",54.426578,-2.555622,289.000000
9881323049,"Unknown",54.544386,-3.379418,410.000000
8974607135,"Grey Crag",54.457868,-2.777213,636.000000
8973824352,"Harter Fell",54.396811,-2.431144,517.000000
8973824322,"Knott",54.406801,-2.442131,464.000000
8962536984,"Rispa Pike",54.406213,-2.558739,470.000000
8962536902,"Uldale Head",54.394578,-2.556060,525.000000
8962536522,"Unknown",54.407290,-2.586357,408.000000
8960288113,"Knott",54.414678,-2.570232,390.000000
8960250738,"Simon's Seat",54.393910,-2.524994,586.000000
8959265086,"Yarlside",54.381308,-2.485776,631.000000
8849820715,"Lunsty Howe",54.425300,-2.844274,158.000000
8811018438,"Great Borne",54.535100,-3.355307,612.000000
8712123500,"Sour Hill",54.443335,-2.421524,324.000000
8702232948,"Nettle Hill",54.464846,-2.439075,381.000000
8647821460,"Pen",54.450755,-3.202716,753.000000
8615290123,"Castle Fell",54.406878,-2.663880,469.000000
8591396716,"Grisedale Pike",54.327081,-2.376908,620.000000
8591396703,"Black Hill",54.341979,-2.376219,401.000000
8591396701,"Galey Hill",54.340516,-2.355696,368.000000
9415777881,"Unknown",54.421184,-2.683112,445.000000
8558252761,"Unknown",54.259543,-2.843772,197.000000
10081513952,"Unknown",54.464373,-2.740613,595.000000
8450253511,"Great Swarther",54.264941,-2.624826,220.000000
8450253369,"Tinkler Bank",54.242594,-2.654499,192.000000
8450253338,"Pike Haw",54.238883,-2.661158,201.000000
8450253272,"Green Hill",54.227677,-2.673958,177.000000
8450253271,"Pendle Hill",54.230415,-2.688372,118.000000
8383604924,"Caer Mot",54.727666,-3.250229,279.000000
8339401604,"Higging Head",54.225858,-2.731458,42.000000
8330032777,"Fellbarrow",54.605842,-3.344674,417.000000
8301171752,"Todd Fell",54.411662,-2.752999,394.000000
9792597224,"High Greenrigg",54.390430,-2.382949,562.000000
8258170878,"Unknown",54.319599,-2.847551,170.000000
8247174116,"Unknown",54.317962,-2.846299,154.000000
10154251416,"Seavy Mire Hill",54.367250,-2.961638,218.000000
8206824900,"Hang Hill",54.213400,-2.747768,39.000000
8083881884,"Rydal Fell",54.469178,-2.993821,610.000000
8035009339,"Unknown",54.560174,-3.084301,390.000000
7846944065,"Roundclose Hill",54.643897,-3.335379,99.000000
7813273867,"Brown How",54.529972,-3.368534,315.000000
7809418960,"Unknown",54.548596,-3.119540,442.000000
7793471689,"Unknown",54.565319,-3.052665,241.000000
7737543699,"Bleasegale Hill",54.275141,-2.666108,216.000000
8339401607,"Woodhouse Hill",54.246100,-2.748395,65.000000
7709881774,"Neaum Crag",54.427844,-3.017184,138.000000
7673066851,"High West Hill",54.822863,-3.374064,37.000000
7650153196,"Whinny Fell",54.910309,-2.672204,329.000000
7614980004,"The Mount",54.274025,-3.242497,137.000000
9439188752,"Paper Hill",54.744767,-2.393105,546.000000
7550637238,"Gallowbarrow Hill",54.754395,-3.377811,91.000000
7472935343,"Chapels Hill",54.649577,-3.443133,73.000000
7447976832,"Foulknott Hill",54.601043,-3.424890,109.000000
7362243039,"Unknown",54.693148,-3.446656,88.000000
10132115124,"Collith Haw Hill",54.301935,-3.054841,242.000000
7342917893,"Cocklakes",54.240379,-3.136663,325.000000
7340934965,"Crag Height",54.223909,-3.153193,291.000000
7331827971,"High Moor",54.218488,-3.132596,303.000000
7331827970,"Shooting House Hill",54.226405,-3.136853,326.000000
9482969402,"Long Hill",54.755251,-2.586214,295.000000
9123919086,"Unknown",54.419541,-2.922580,341.000000
7331827969,"Gunson Height",54.229890,-3.142123,317.000000
8339401605,"Chapel Hill",54.220863,-2.722209,45.000000
7227081523,"Walna Scar",54.357387,-3.144123,609.000000
7633048368,"Rebecca Hill",54.195577,-3.181045,177.000000
6792376389,"Unknown",54.563803,-3.080485,426.000000
6742421931,"Unknown",54.588134,-3.338638,408.000000
6665044260,"Gregory",54.616274,-2.444165,379.000000
6618799836,"Watch Hill",54.917999,-2.741897,134.000000
6544776461,"Unknown",54.411694,-3.502976,11.000000
6224549604,"Carl Side",54.642378,-3.155981,745.000000
11831393363,"Haystacks SE Top",54.503134,-3.237603,533.000000
6118496367,"Brund Fell",54.536094,-3.138821,407.000000
11133497896,"Unknown",54.632792,-3.258040,462.000000
5933839969,"Swarthy Hill",54.748997,-3.447910,26.000000
5812443385,"Unknown",54.629582,-3.207565,133.000000
5785216898,"Scale Head",54.371412,-2.962120,253.000000
5785216897,"Unknown",54.363814,-2.963751,192.000000
10127766732,"Wormhole Hill",54.304817,-3.057415,259.000000
5688151448,"Bessyboot",54.502197,-3.146820,534.000000
5649488237,"Blencathra",54.639976,-3.049722,848.000000
5578052147,"Hindscarth",54.537860,-3.213746,721.000000
5542967152,"Sergeant's Crag",54.492607,-3.122273,561.000000
5525430466,"Rossett Pike",54.457936,-3.159790,637.000000
5516463515,"Rayseat",54.460557,-2.484101,286.000000
5498705634,"Middle Fell",54.453198,-3.311395,572.000000
9785134126,"Great Bell",54.436482,-2.330765,369.000000
5496836189,"Mardale Ill Bell",54.483383,-2.854105,754.000000
5472634841,"Harrison Stickle",54.456880,-3.109446,722.000000
5446002973,"Gibson Knott",54.481085,-3.055821,411.000000
5378256988,"Old Man of Coniston",54.370652,-3.121448,792.000000
5375763184,"Catstycam",54.533486,-3.008921,860.000000
5340666308,"Bowfell",54.447767,-3.166257,880.000000
5322017111,"Husk Howe Hill",54.499172,-2.174230,-inf
6151333439,"Clough Head",54.593648,-3.032364,724.000000
5320114103,"Dollywaggon Pike",54.508644,-3.011139,840.000000
9691490764,"The Tongue",54.662228,-3.013338,544.000000
5318628483,"Peatpot Hill",54.465540,-2.266795,-inf
5318628471,"Peatmoor Hill",54.475519,-2.266178,-inf
5318628399,"Askew Hill",54.494822,-2.272487,-inf
5295786265,"Byrestead Hill",54.510092,-2.358368,167.000000
5295786256,"Sunny Brow",54.503850,-2.364171,165.000000
5295782052,"Rosber Hill",54.494387,-2.368608,164.000000
5295669857,"Loy's Hill",54.511781,-2.400856,179.000000
5295669850,"Mill Hill",54.518174,-2.406711,166.000000
5295669849,"Greenplats Hill",54.516970,-2.381911,157.000000
7633048369,"Hare Slack Hill",54.191814,-3.175528,183.000000
5295457186,"Wildboar Hill",54.543500,-2.402802,172.000000
5285708731,"201",54.548740,-2.522100,199.000000
5277409420,"Unknown",54.674450,-3.441674,93.000000
5257460326,"Wether Hill",54.448164,-2.404444,362.000000
5257460325,"Rasett Hill",54.442645,-2.405877,371.000000
5230028097,"Pica Hill",54.531387,-2.311733,-inf
5228251233,"Bale Hill",54.617493,-2.466600,226.000000
5228251025,"Howebutts Hill",54.599452,-2.496336,170.000000
7643659474,"Seat Hill",54.926915,-2.641293,225.000000
5227079074,"Blease Fell",54.397809,-2.580756,472.000000
5215846206,"Castley Hill",54.478715,-3.463552,223.000000
5202372844,"Kinniside Cop",54.517564,-3.482315,176.000000
7643691596,"Talkin Fell",54.900655,-2.671999,377.000000
5202209175,"Unknown",54.556873,-3.435571,176.000000
5201995472,"Unknown",54.590485,-3.380478,234.000000
5201930153,"Mockerkin How",54.591310,-3.395821,245.000000
7629752662,"Woodhouse Hill",54.187587,-2.731333,51.000000
5190843008,"Gatebarrow",54.621722,-3.467135,99.000000
5190761508,"Calva Hill",54.626022,-3.453990,80.000000
5190499856,"Ox Hill",54.646464,-3.442844,80.000000
5157535846,"Howenook Pike",54.482895,-2.613786,368.000000
5321837397,"Brownber Head",54.458099,-2.242049,-inf
5153801057,"Ancrow Brow",54.441527,-2.772727,537.000000
5153801054,"Great Howe",54.449563,-2.789518,473.000000
5152314939,"Sandy's Knowe",54.861713,-2.601749,523.000000
5151649223,"Tarnmonath Fell",54.884207,-2.645377,508.000000
5151236594,"Daffenside Beacon",54.787274,-2.548611,655.000000
5130368187,"Caer Mote",54.722558,-3.248437,271.000000
5128664270,"Harrot Hill",54.655254,-3.384387,116.000000
5103206757,"Bennethead Banks",54.610931,-2.863002,292.000000
5078731107,"North Hill",54.850324,-3.361964,12.000000
5069099638,"Fisher High",54.309127,-3.117724,206.000000
7353427184,"Whirl Howe",54.440849,-2.794013,182.000000
5058004786,"Blawith Knott",54.285842,-3.137272,244.000000
5053235473,"Great End",54.464953,-3.194489,903.000000
5050638907,"Unknown",54.429793,-2.998777,251.000000
5039390734,"Brandreth",54.496450,-3.214326,711.000000
5039390733,"Base Brown",54.492541,-3.197556,638.000000
5038765794,"Braithwaite How",54.603867,-3.194622,156.000000
5036643030,"Whiteside-Gasgale Crags Summit",54.588317,-3.272922,693.000000
5036584873,"Sand Hill",54.585353,-3.259663,741.000000
9884996320,"Great Oath Hill",54.208040,-3.050023,61.000000
7658034118,"Low Hill",54.914088,-2.737969,109.000000
5028714154,"Cragged Head",54.606282,-3.301740,123.000000
5024374008,"Stile End",54.586299,-3.207366,438.000000
5022221045,"Burthwaite Heights",54.643387,-3.258839,316.000000
5020256698,"High Pen",54.557803,-3.376733,462.000000
7579434915,"Toot Hill",54.747343,-3.056660,179.000000
5020176938,"Godworth",54.551844,-3.391638,360.000000
9735287497,"Hazel Bank",54.463036,-2.703818,425.000000
5020176937,"Kelton Fell",54.550255,-3.401067,304.000000
5014240535,"Little Eycott Hill",54.661876,-2.954954,321.000000
5013660103,"Mickle How",54.738354,-3.048051,233.000000
5011923578,"Atkinson Pike",54.644572,-3.049514,837.000000
5007442241,"Slate Hill",54.505538,-2.691564,291.000000
5007398369,"White Crag",54.499139,-2.713944,417.000000
5007230969,"Hallmoss Hill",54.496099,-2.722640,473.000000
4861906704,"Castle How",54.697026,-3.154858,301.000000
5007228913,"Scalebarrow Knott",54.530804,-2.744498,334.000000
9756592294,"Ulthwaite Rigg",54.476844,-2.751154,500.000000
9385364853,"Grumply Hill",54.680572,-2.509870,402.000000
560045811,"Hallin Fell",54.570372,-2.878455,378.000000
5006937027,"Beastman's Crag",54.501551,-2.753381,464.000000
518744193,"Long Top",54.433665,-3.159835,849.000000
5006937023,"Scam Matthew",54.487941,-2.748477,511.000000
5006936648,"Tongue Rigg",54.483326,-2.727460,442.000000
5005075286,"Unknown",54.570687,-2.835627,558.000000
3491677765,"Bank House Moor",54.213936,-3.158641,311.000000
5004931085,"Little Birkhouse Hill",54.540889,-2.782186,395.000000
5000075648,"Hollow Moor",54.429461,-2.820062,415.000000
4843248557,"Boathow",54.512834,-3.376451,284.000000
4999896690,"Knotts",54.576483,-2.803412,402.000000
773500780,"Whitebank Hill",54.410891,-2.311068,-inf
4559114221,"Crossbers Hill",54.497809,-2.391916,174.000000
1985617392,"Unknown",54.404548,-3.016817,302.000000
4999675417,"Soulby Fell",54.613054,-2.852418,288.000000
29958539,"Hen Comb",54.550839,-3.343231,500.000000
4999575004,"Lingmell End",54.474962,-2.857151,658.000000
4997369059,"Little Mell Fell",54.608022,-2.894447,502.000000
11692060532,"Banks",54.740736,-3.009748,244.000000
11192972480,"Gowbarrow Park",54.583870,-2.917988,451.000000
4996578943,"Green Hill",54.580740,-2.913024,425.000000
5228554227,"Black Hill",54.552907,-2.373685,244.000000
29766665,"Helm Crag",54.475034,-3.040807,389.000000
3625447299,"Black Star",54.516468,-3.218176,621.000000
4996406322,"Browhow Hill",54.630478,-2.918461,302.000000
4990559780,"Stone Chair Hill",54.403860,-3.031450,202.000000
9090568269,"Unknown",54.401135,-2.446424,472.000000
5284113978,"St Nicholas's Hill",54.585421,-2.498670,162.000000
4985270562,"High Haume",54.175017,-3.186456,153.000000
4952642351,"Swinescar Pike",54.454406,-3.056243,394.000000
4952407982,"Blake Rigg",54.401039,-3.078191,412.000000
5007442243,"Lingly Hill",54.514812,-2.684148,250.000000
1576685396,"Scot Howe",54.452127,-2.648737,342.000000
434338520,"Grange Scar",54.481460,-2.503529,381.000000
4951017039,"Gunson Knott",54.434940,-3.158075,826.000000
4948867618,"White Maiden",54.351464,-3.148599,607.000000
3465595556,"Knottallow Hill",54.213223,-3.122915,246.000000
4948866798,"Green Pikes",54.345462,-3.176389,405.000000
7673066850,"East Hill",54.824396,-3.370361,32.000000
4948779684,"The Knott",54.316974,-3.193953,274.000000
9824781567,"Knoutberry Haw",54.322331,-2.414569,673.000000
4948779645,"Brock Barrow",54.337981,-3.200520,329.000000
4943496669,"Hovel Knott",54.310389,-3.213777,191.000000
4942171714,"The Knott",54.345585,-3.318078,318.000000
3644248530,"Thistley Hill",54.579228,-2.506310,156.000000
4941929208,"Great How",54.425047,-3.238438,511.000000
31361426,"Hutton Roof Crags",54.190948,-2.681986,271.000000
4899648241,"Parkbreast",54.391327,-3.358465,101.000000
560046374,"Lord's Seat",54.452696,-2.743973,520.000000
4897546284,"Unknown",54.495097,-3.445383,327.000000
4942369103,"Great Worm Crag",54.361178,-3.241697,424.000000
4897234118,"Latter Barrow",54.489698,-3.432784,340.000000
4897275640,"Stone Pike",54.457759,-3.421835,319.000000
4897234119,"Unknown",54.491456,-3.424802,371.000000
4896955317,"High Birkhow",54.429125,-3.323118,118.000000
4892064662,"Scoat Fell",54.490880,-3.299194,839.000000
4999340885,"Hall Hill",54.441983,-2.893319,150.000000
4891950620,"Kirk Fell",54.483334,-3.244014,796.000000
4891679450,"Floutern Cop",54.543878,-3.358829,432.000000
7342917894,"Keldray Moor",54.246188,-3.128718,302.000000
5785216870,"Claife Heights",54.367874,-2.952582,265.000000
4872221552,"Meal Fell",54.693780,-3.113886,544.000000
323990469,"Cold Fell",54.469604,-3.454734,288.000000
4872184186,"Swinside",54.591539,-3.172581,234.000000
11191742602,"High Rigg SE Top",54.582954,-3.069530,322.000000
5545643325,"Mansey Pike",54.466437,-3.145477,529.000000
4869919088,"Whin Fell",54.616788,-3.340780,299.000000
4869861252,"Broadmoor Hill",54.611084,-3.329784,240.000000
443623026,"Great Lingy HIll",54.696075,-3.071994,614.000000
4861862465,"Ruddings hill",54.676420,-3.243206,91.000000
29766675,"Pike of Stickle",54.456413,-3.121397,654.000000
4885689516,"Sergeant Man",54.470465,-3.102397,717.000000
4858008112,"Drygill Head",54.697236,-3.061033,609.000000
8554650247,"Flodding Hill",54.274471,-2.677054,162.000000
5006937105,"Willy Winder Hill",54.497864,-2.739313,478.000000
4857956286,"Little Sca Fell",54.697896,-3.103950,630.000000
10907721808,"Iron Hill",54.527405,-2.624770,351.000000
7168689663,"Great Mell Fell",54.619865,-2.935677,530.000000
4857891349,"Birk Hill",54.708016,-3.074585,494.000000
4853801293,"Low Kop",54.540951,-2.814008,572.000000
4999344091,"Unknown",54.412102,-2.896368,278.000000
5201930132,"Toot Hill",54.599392,-3.393550,184.000000
4853287465,"Middle How",54.489461,-3.087523,468.000000
828508244,"Lock Hill",54.391397,-2.340373,291.000000
4850543162,"How Barrow",54.204501,-2.986335,158.000000
11288138877,"Great Slack",54.474313,-3.193279,619.000000
349060978,"Crag Hill",54.571775,-3.250167,834.000000
4843793523,"Blake Fell",54.564512,-3.377283,563.000000
4843793522,"Sharp Knott",54.568177,-3.382759,469.000000
4700927189,"Ivy Crag",54.397199,-3.053301,297.000000
4999575296,"Kidsty Pike",54.505525,-2.855140,759.000000
4687631689,"Broom Fell",54.632182,-3.247882,504.000000
5006937106,"Glede Howe",54.502814,-2.741519,465.000000
5295669858,"Black Hill",54.508455,-2.406499,169.000000
4659490535,"Swarth Fell Pike",54.357380,-2.369428,650.000000
434312100,"Moor How",54.311309,-2.929082,211.000000
4943641225,"Hesk Fell",54.340924,-3.268798,478.000000
4559114229,"Hemmel Hill",54.514541,-2.400781,183.000000
4559114226,"Turkeytarn Hill",54.508649,-2.479034,247.000000
4559114225,"Linglow Hill",54.502245,-2.538601,341.000000
4559114222,"Washber Hill",54.499853,-2.384063,160.000000
4559114219,"Barnskew Hill",54.480983,-2.404447,218.000000
4433317094,"Nethermost Pike",54.518985,-3.015429,889.000000
29730758,"Raise",54.547709,-3.017462,876.000000
4433287379,"Hartside",54.568777,-2.992737,752.000000
4404607839,"Caw",54.339768,-3.185251,512.000000
10772887794,"Starry Hill",54.883682,-3.312918,6.000000
4348276569,"Unknown",54.501038,-3.470296,280.000000
8079265274,"Dead Stones",54.753687,-2.321945,-inf
4053830343,"Queen Adelaide's Hill",54.379896,-2.920059,76.000000
4857744084,"Lowthwaite Fell",54.702617,-3.121480,502.000000
560046468,"Grayrigg Common",54.391705,-2.620079,489.000000
4011610628,"Woodcock Hill",54.872079,-2.726316,178.000000
434322177,"Potter Fell",54.396132,-2.776773,388.000000
4011590998,"Newbiggin Fell",54.843857,-2.647402,480.000000
29954488,"High Spy",54.535608,-3.185140,642.000000
4859335189,"Little Lingy Hill",54.690851,-3.086147,594.000000
4011590996,"Middle Top",54.861657,-2.640223,485.000000
426575021,"Unknown",54.660466,-2.374191,701.000000
323100600,"Byers Pike",54.909271,-2.568910,450.000000
3882395186,"Unknown",54.476801,-3.193981,623.000000
560045769,"Dod Hill",54.439700,-2.910240,442.000000
4559114230,"Intake Hill",54.509222,-2.385782,163.000000
1840023702,"Barrow",54.287728,-3.251737,263.000000
3690576198,"Milnthorpe Hill",54.223262,-2.765476,69.000000
4843972491,"Dodd",54.595295,-3.286925,424.000000
3690560467,"Con Hill",54.165095,-2.696339,123.000000
10001457587,"Knipe Scar",54.565171,-2.733517,332.000000
289203073,"Reston Scar",54.381756,-2.832729,243.000000
4429561318,"Wansfell",54.432178,-2.927564,467.000000
3662662754,"Castle Hill",54.469290,-2.336654,225.000000
11113614774,"Flinty Fell",54.771826,-2.356781,613.000000
560046287,"Capplebarrow",54.425149,-2.759554,508.000000
3662662753,"Birkett Hill",54.464481,-2.308374,-inf
3662102484,"Wiseber Hill",54.458255,-2.370482,280.000000
10781335246,"Nichol Hill",54.436311,-2.624868,211.000000
3662102483,"Stenkrith Hill",54.464054,-2.349532,208.000000
3660717247,"Near Black Hill",54.454175,-2.388841,310.000000
3660717242,"Bents Hill",54.456304,-2.454336,334.000000
4859920065,"Barkbeth Hill",54.668949,-3.178534,250.000000
3644248531,"Threat Rigg",54.586444,-2.554495,175.000000
434303219,"Latterbarrow",54.383415,-2.975837,238.000000
3639477428,"Raven Crag",54.283544,-3.282901,369.000000
3639477426,"Gray Stones",54.274255,-3.289626,393.000000
3618028587,"Great Birkhouse Hill",54.539269,-2.784023,381.000000
434312153,"Unknown",54.319018,-2.933635,206.000000
1237643078,"Combs",54.261617,-3.127435,255.000000
3565762454,"High Scawdel",54.523679,-3.185449,555.000000
3465596973,"Copse Hill",54.199894,-3.135403,205.000000
29961878,"Crag Fell",54.516706,-3.396057,518.000000
3465595963,"Gamswell Hill",54.206534,-3.114353,191.000000
3218560541,"Sail",54.571349,-3.241682,760.000000
7793471688,"Unknown",54.567666,-3.050630,319.000000
3100546652,"Dale Head",54.527225,-3.202222,747.000000
3100129231,"Great Knott",54.428511,-3.142502,686.000000
3048844644,"White Howe",54.430999,-2.735856,526.000000
3047922240,"Long Crag",54.440267,-2.747941,490.000000
2934649186,"Watch Hill",54.633809,-2.389364,581.000000
2934649185,"Thistly Hill",54.648386,-2.332956,597.000000
29953212,"Great Sca Fell",54.695111,-3.101016,650.000000
430115099,"Unknown",54.837334,-2.605889,564.000000
2782954438,"Flan Hill",54.207394,-3.100261,142.000000
278205459,"Dovenest Top",54.492291,-3.150682,610.000000
4747627151,"Tuggleshaw",54.388113,-2.759300,316.000000
8384467985,"Torpenhow Hill",54.739663,-3.234780,201.000000
2688264430,"High Crag",54.514027,-3.015845,870.000000
2643941948,"Sighty Crag",55.120753,-2.625991,-inf
2565355888,"Holbeck",54.119631,-3.185525,54.000000
2403482727,"Unknown",54.487567,-3.037507,240.000000
9028101670,"Will Hill",54.433997,-2.456913,255.000000
2311680217,"Whimsey Hill",54.806434,-2.349552,569.000000
8634873815,"Howe Hill",54.236873,-2.692143,137.000000
4559114220,"Longthorn Hill",54.488936,-2.397967,184.000000
2201789861,"The Helm",54.292057,-2.722539,168.000000
5007230605,"Gambling Crag",54.498244,-2.724308,476.000000
2188778783,"Bell Hill",54.338666,-2.816604,132.000000
2168510291,"Green Quarter Fell",54.424891,-2.812001,326.000000
2143986055,"Brownthwaite Pike",54.218891,-2.541785,413.000000
2137731691,"Lambrigg Fell",54.341114,-2.638227,330.000000
2128088418,"Benson Knott",54.340853,-2.696192,318.000000
2126622464,"Lang How",54.454407,-3.052764,402.000000
4999896647,"Hodgson Hill",54.602179,-2.831359,151.000000
9918596281,"Rasp Hill",54.643057,-2.346216,634.000000
9415771249,"Casterfell Hill",54.412703,-2.623079,362.000000
2123602550,"Black Sails",54.397390,-3.105664,742.000000
29958534,"Low Fell",54.591369,-3.336609,414.000000
2216123774,"Roman Fell",54.577487,-2.381820,590.000000
29952603,"Bowscale Fell",54.665542,-3.035059,700.000000
2117450392,"High House Bank",54.436944,-2.705919,489.000000
29765663,"Great Crag",54.522204,-3.129336,440.000000
5005246312,"Baker Hill",54.544546,-2.724055,201.000000
2015823644,"Unknown",54.559092,-3.020266,838.000000
5005342000,"Harper Hills",54.522307,-2.758188,411.000000
1906701280,"Unknown",54.445643,-3.337280,433.000000
29877478,"Harter Fell",54.386831,-3.204204,643.000000
29954134,"Robinson",54.540810,-3.235222,732.000000
434306549,"Black Brows",54.325161,-2.981668,258.000000
4843971695,"Scale Hill",54.579991,-3.311448,199.000000
1825221818,"Great How Crags",54.389823,-3.120685,752.000000
4891757732,"Grike",54.513745,-3.414838,483.000000
9513262505,"Newbiggin Fell",54.842982,-2.663002,424.000000
5257460324,"Unknown",54.446008,-2.422305,326.000000
1825151193,"Burnhope Seat",54.732351,-2.334594,747.000000
4559114224,"Coalpit Hill",54.506668,-2.557977,308.000000
8967736851,"Weather Hill",54.423797,-2.571801,339.000000
1788886481,"Stony Cove Pike",54.482113,-2.899940,761.000000
11692060516,"Bakestall (Wainwright summit)",54.667438,-3.139025,664.000000
434339595,"Beacon Hill",54.484152,-2.565241,388.000000
1779202041,"Alan Crag",54.548083,-2.884984,480.000000
1717948764,"Rabbit Hill",54.572634,-2.274212,-inf
29877486,"Green Crag",54.373724,-3.232775,469.000000
1576685373,"Thorny Bank",54.446323,-2.655328,367.000000
9385410090,"Willie Hill",54.681413,-2.532969,239.000000
1576685353,"Nan Hill",54.452923,-2.653286,348.000000
1514144426,"Butharlyp Howe",54.462488,-3.025503,102.000000
433587926,"Unknown",54.761374,-2.487253,431.000000
4859334862,"Little Cockup",54.692552,-3.146023,392.000000
4999896414,"Flusco Hill",54.625606,-2.819079,174.000000
4999344093,"Allen Knott",54.401658,-2.904111,222.000000
1508688125,"Brock Barrow",54.299491,-3.079305,220.000000
5785216896,"Scale Ivy",54.359857,-2.953792,224.000000
1479219408,"Birkett Knott",54.430762,-2.346312,325.000000
1479208030,"Docker Knott",54.393287,-2.537094,516.000000
5022221187,"Ladyside Pike",54.593292,-3.262999,689.000000
31361428,"Warth Hill",54.253872,-2.665155,271.000000
4618994657,"Wiythwaite Top",54.687676,-2.523719,398.000000
1479208016,"Great Dummacks",54.361548,-2.495764,660.000000
5066873304,"Wool Knott",54.296932,-3.118928,216.000000
1479208013,"Yoadcomb Hill",54.384607,-2.362555,587.000000
4604287478,"Moray Hill",54.683382,-2.516029,395.000000
1423925858,"Yew Pike",54.377583,-3.078597,343.000000
1416335751,"Dunmallard Hill",54.614123,-2.825588,245.000000
4859613467,"Unknown",54.670408,-3.013189,598.000000
11192972483,"Dacre Bank",54.640384,-2.851771,295.000000
1388890469,"Buck Pike",54.365102,-3.136819,731.000000
1207421915,"Kinmont Buck Barrow",54.307243,-3.312894,527.000000
4994982092,"Heron Pike",54.551700,-2.970044,587.000000
1207421908,"Buck Barrow",54.307939,-3.304605,536.000000
433591308,"Twotop Hill",54.764784,-2.565136,551.000000
1207420852,"Water Crag",54.365324,-3.303640,296.000000
1207420404,"White Pike",54.349188,-3.308029,433.000000
4975463452,"Brown Howe",54.504267,-2.797401,492.000000
1083427724,"Murton Pike",54.602418,-2.411956,584.000000
1207420401,"Stainton Pike",54.336892,-3.304838,487.000000
3662662751,"Bastifell",54.458260,-2.268579,-inf
1207416581,"Stoneside Hill",54.291842,-3.313672,411.000000
1207411326,"Whitfell",54.325462,-3.294890,569.000000
29730764,"Great Dodd",54.575718,-3.019387,854.000000
4943726913,"Stord's Hill",54.353745,-3.303475,367.000000
6544776460,"Unknown",54.408716,-3.500079,18.000000
1207420402,"Yoadcastle",54.345755,-3.298477,477.000000
1205620776,"Appleby Hill",54.159662,-3.091007,110.000000
3106164906,"Rough Crag",54.451797,-3.205835,810.000000
10259153266,"Great Saddle Crag",54.471165,-2.732032,554.000000
430129306,"Knott",54.341316,-2.499160,422.000000
1172870051,"Lonscale Fell",54.634348,-3.108454,711.000000
2177549361,"High Fell",54.265919,-2.637999,270.000000
5007230542,"Langhowe Pike",54.514117,-2.728299,390.000000
31390701,"Haverbrack Bank",54.217712,-2.791116,108.000000
1159033998,"Begin Hill",54.452954,-2.438109,310.000000
9439083841,"Staneshaw Rigg",54.749238,-2.449950,594.000000
7331827968,"Out Park",54.226287,-3.153686,299.000000
430130560,"Brown Moor",54.365828,-2.548941,399.000000
1159023718,"Seal Howe",54.505782,-2.624297,354.000000
418322724,"Benty Hill",54.781081,-2.514736,605.000000
2565692043,"Housethwaite Hill",54.167044,-3.196784,96.000000
9936871922,"Four Stones Hill",54.539136,-2.787364,403.000000
443629988,"Eycott Hill",54.656513,-2.952499,336.000000
1159023705,"Coalpit Hill",54.493676,-2.619292,361.000000
5007230602,"Great Ladstones",54.504656,-2.724234,429.000000
1159023697,"Long Scar Pike",54.491487,-2.629840,395.000000
3133009392,"South Top",54.430828,-3.157424,819.000000
1133793763,"Great Knipe",54.524907,-2.206216,-inf
918161713,"Black Hill",54.421435,-2.374591,317.000000
883702081,"Castlehead",54.593958,-3.131669,145.000000
4899751606,"Unknown",54.362367,-3.391853,122.000000
4618994658,"Unknown",54.654896,-2.479354,411.000000
4518097795,"Wandale Hill",54.385370,-2.455944,491.000000
828521785,"Round Hill",54.434017,-2.343029,231.000000
434373260,"Aye Gill Pike",54.292381,-2.430632,553.000000
828520845,"Black Hill",54.422689,-2.344515,273.000000
5007230603,"Bleak Hill",54.503771,-2.722676,424.000000
5201929826,"Unknown",54.601973,-3.411500,123.000000
828508595,"Turner Hay Hill",54.391267,-2.344785,369.000000
775444660,"Heel Toe Hill",54.318106,-3.057085,311.000000
773524085,"Well Hill",54.253087,-2.481372,479.000000
530605054,"Unknown",54.488042,-3.460737,301.000000
773523127,"Tarn Hill",54.310035,-2.470987,270.000000
9916502211,"Eskdale Needle",54.411485,-3.191274,408.000000
5066713447,"Tottlebank Height",54.287128,-3.124194,229.000000
3662102440,"Highmore Hill",54.464679,-2.377412,265.000000
2462716268,"Howes",54.486239,-2.776170,584.000000
773522588,"Brockought Hill",54.313014,-2.470751,238.000000
773522579,"Tom Croft Hill",54.316781,-2.472231,188.000000
7132664004,"Birks",54.520736,-2.958901,621.000000
773521794,"Garsdale Pike",54.323727,-2.426527,567.000000
773518797,"Rhume Hill",54.345546,-2.474731,192.000000
5026160162,"Seatallan",54.464203,-3.327925,686.000000
773499280,"Gallows Hill",54.450917,-2.357939,243.000000
11692060514,"Skiddaw South Top",54.647270,-3.147600,918.000000
4996578925,"Great Meldrum",54.592599,-2.907199,435.000000
7682303090,"Unknown",54.811237,-3.389526,29.000000
5009324340,"Turpin Hill",54.719213,-3.136046,287.000000
1159033996,"Stakeley",54.466299,-2.668388,374.000000
4899549754,"Forge Hill",54.380487,-3.322967,32.000000
768273953,"Arnsbarrow Hill",54.311403,-3.060493,316.000000
10127766731,"Unknown",54.305957,-3.053629,261.000000
5011274176,"Yard Steel",54.697572,-3.095016,633.000000
828509193,"White Hill",54.394371,-2.350171,424.000000
11693763199,"Tailor Hill",54.758625,-2.678408,124.000000
29728747,"Hart Crag",54.492717,-2.976915,813.000000
719139274,"Man Scar",54.402390,-3.044545,253.000000
8733346510,"Unknown",54.522476,-3.129373,439.000000
700262437,"Slatefell",54.661188,-3.326842,162.000000
697656035,"Hooker Crag",54.372589,-3.368339,223.000000
29728730,"Stone Arthur",54.474257,-3.008376,494.000000
2188805656,"Lord's Lot",54.328490,-2.853921,205.000000
9415771266,"Birk Knott",54.399801,-2.614811,399.000000
681786251,"Round Knott",54.694246,-3.034254,598.000000
1083427099,"Unknown",54.611475,-2.446563,343.000000
677102153,"Dale Hause",54.570245,-2.809539,417.000000
1730489363,"Side Pike",54.438648,-3.091313,327.000000
672524465,"Gray Crag",54.497486,-2.885157,689.000000
671570072,"Raven Howe",54.522472,-2.851204,716.000000
4429492813,"Sour Howes",54.421177,-2.883525,478.000000
671570068,"Red Crag",54.529993,-2.850561,707.000000
671537930,"High Kop",54.535919,-2.837085,662.000000
671537924,"Low Raise",54.515998,-2.841189,754.000000
663467366,"Unknown",54.218349,-3.079066,158.000000
659001617,"Birkrigg",54.158783,-3.098853,134.000000
430126189,"Grere Fell",54.399318,-2.458519,540.000000
644622453,"Unknown",54.269611,-2.750806,85.000000
560114948,"Bonscale Pike",54.573044,-2.846925,514.000000
433636459,"Unknown",54.683201,-2.368721,596.000000
2377725245,"Seat How",54.362843,-3.285733,295.000000
560114940,"Angletarn Pikes",54.525370,-2.907958,552.000000
11192891428,"Middleton",54.405249,-2.536455,484.000000
560114935,"Wether Hill",54.543209,-2.842441,671.000000
10312752778,"Green Quarter",54.431128,-2.812792,409.000000
560114925,"The Nab",54.529038,-2.875687,573.000000
430126223,"Stockless",54.399768,-2.472380,565.000000
4885256362,"Low Saddle",54.510053,-3.101137,645.000000
7643691766,"Tortie Hill",54.916605,-2.640180,289.000000
29730761,"Glenridding Dodd",54.549477,-2.959251,433.000000
5000075458,"Wray Crag",54.441115,-2.814920,454.000000
434306756,"Brock Crag",54.321621,-3.007964,210.000000
560046551,"Seat Robert",54.495757,-2.732629,509.000000
4943640564,"Great Paddy Crag",54.307030,-3.306593,530.000000
560046518,"Great Yarlside",54.462339,-2.734746,586.000000
3643914181,"Wander Bank",54.480941,-2.442295,316.000000
560046495,"Little Yarlside",54.457444,-2.723013,516.000000
560114944,"High Hartsop Dodd",54.488540,-2.937800,508.000000
426583515,"Brownber Hill",54.641820,-2.457554,515.000000
560046402,"Selside Pike",54.493065,-2.787940,652.000000
560114916,"Arthur's Pike",54.578405,-2.835844,527.000000
560046341,"Kentmere Pike",54.462672,-2.826178,728.000000
29532667,"Wold Fell",54.260288,-2.323584,559.000000
3803847333,"Barkin Top",54.272721,-2.509738,591.000000
560046175,"High Street",54.491677,-2.864870,827.000000
3660717263,"Unknown",54.455221,-2.403425,358.000000
29953937,"Knott Rigg",54.558665,-3.242511,548.000000
560046147,"Wansfell Pike",54.429259,-2.935606,470.000000
5202186540,"Unknown",54.603016,-3.364200,258.000000
433613211,"Fallow Hill",54.713041,-2.464662,786.000000
560046104,"Thornthwaite Crag",54.482631,-2.878859,781.000000
29961867,"Caw Fell",54.486921,-3.341473,695.000000
560046092,"Froswick",54.468936,-2.872969,704.000000
6810911420,"Brim Fell",54.377296,-3.124199,793.000000
5130367559,"Cross Hill",54.699723,-3.268003,147.000000
5006937026,"Fewling Stones",54.499047,-2.753326,501.000000
29766662,"Calf Crag",54.484221,-3.079473,523.000000
3046434185,"Borrowdale Head",54.425338,-2.729698,526.000000
560046037,"Shipman Knotts",54.448580,-2.814707,579.000000
676847377,"Crag Top",54.555259,-2.808120,464.000000
560045991,"Unknown",54.490995,-2.882101,699.000000
10304139274,"Wilson Knott",54.382333,-2.956471,173.000000
8224450815,"Priest's Crag",54.601731,-2.892358,416.000000
4896821840,"Great Scoat Fell",54.489179,-3.306453,800.000000
29876665,"Swirl How",54.395169,-3.121534,795.000000
3045648271,"Little Saddle Crag",54.468265,-2.730891,569.000000
560045965,"Troutbeck Tongue",54.449959,-2.892278,362.000000
773523918,"Loftshaw Pike",54.257010,-2.486093,450.000000
560045874,"Brock Crags",54.514879,-2.902599,553.000000
4618994659,"Unknown",54.654883,-2.428005,715.000000
7128211703,"Little Hart Crag",54.481906,-2.947277,619.000000
29953938,"Ard Crags",54.566969,-3.228176,563.000000
430134226,"Langdale Knott",54.411807,-2.524823,473.000000
482213394,"Hugh Seat",54.386806,-2.296483,-inf
29876661,"Black Fell",54.405491,-3.017893,315.000000
471328585,"Iron Crag",54.495018,-3.355133,638.000000
471328563,"Little Gowder Crag",54.486898,-3.328814,719.000000
29877965,"Scafell Pike",54.454219,-3.211527,971.000000
434338728,"Knott",54.477163,-2.546338,410.000000
1643281110,"Cosca Hill",54.639216,-2.478356,269.000000
459472920,"Farleton Fell",54.217160,-2.705587,254.000000
443667277,"Banna Fell",54.544224,-3.367796,454.000000
833355402,"Unknown",54.386205,-2.834673,261.000000
5152188372,"Blotting Raise",54.839036,-2.629464,588.000000
443667034,"Flat Fell",54.509959,-3.465214,270.000000
4730319950,"Hobcarton Crag",54.587189,-3.248880,723.000000
443665811,"Little Dodd",54.561422,-3.343592,349.000000
443665410,"Carling Knott",54.570358,-3.367107,542.000000
4997369057,"Birk Crag",54.587453,-2.883677,307.000000
443664925,"Darling Fell",54.590600,-3.349473,381.000000
4897234103,"Whoap",54.503194,-3.392238,512.000000
29535881,"High Seat",54.406312,-2.306488,-inf
9842413283,"Unknown",54.543460,-3.458490,206.000000
278205460,"Combe Head",54.488124,-3.160587,717.000000
4869919036,"Askhill Knott",54.592432,-3.358470,272.000000
443664254,"Kirk Fell",54.627318,-3.282748,432.000000
443646031,"Elva Hill",54.675796,-3.281863,233.000000
443637504,"Calfhow Pike",54.580957,-3.037129,652.000000
443645489,"Ladies Table",54.647795,-3.228127,292.000000
443640702,"Dodd Crag",54.576169,-3.098437,444.000000
29876669,"Great Carrs",54.398766,-3.124670,760.000000
443640205,"Common Fell",54.575572,-2.957074,544.000000
430129556,"Nab",54.345946,-2.539242,469.000000
443638579,"Wren Crag",54.572095,-3.059661,294.000000
560045738,"Loadpot Hill",54.554736,-2.842033,671.000000
443633527,"Blease Fell",54.632727,-3.069791,777.000000
2425932625,"Souther Fell",54.653246,-3.001705,520.000000
29766676,"Thunacar Knott",54.462195,-3.112720,720.000000
4942419748,"Potherilt Hill",54.302582,-3.218584,180.000000
4897237424,"Swainson Knott",54.461479,-3.421253,339.000000
1484697020,"Great Stickle",54.313874,-3.213123,295.000000
7505367682,"Caldron Hill",54.666664,-3.424094,42.000000
443631710,"Cockley Moor",54.594161,-2.959685,455.000000
3133956434,"The Bell",54.371878,-3.097629,315.000000
7222658197,"Unknown",54.572094,-3.321671,111.000000
443619971,"Wharrels Hill",54.732961,-3.286614,217.000000
2688264381,"Gavel Pike",54.512424,-2.968564,756.000000
3662662752,"Birkett Hill",54.456593,-2.320919,-inf
5446739530,"Rampsgill Head",54.508072,-2.861251,786.000000
443619602,"Sunderland Heads",54.710654,-3.284983,224.000000
4843887461,"Owsen Fell",54.575947,-3.393145,403.000000
434313606,"Unknown",54.387367,-2.829599,256.000000
443619378,"Moota Hill",54.715661,-3.330731,239.000000
671570064,"Unknown",54.526519,-2.848876,697.000000
4870061394,"Little Dodd",54.528444,-3.316298,580.000000
560045854,"Hartsop Dodd",54.498544,-2.910435,617.000000
5006937024,"High Wether Howe",54.491364,-2.750180,521.000000
443664907,"Sourfoot Fell",54.597885,-3.340588,405.000000
443619252,"Unknown",54.715413,-3.347124,219.000000
9028108169,"Round Hill",54.430234,-2.469187,280.000000
443635891,"White Pike",54.597059,-3.027216,653.000000
9401995466,"Moley Hill",54.598380,-2.412209,402.000000
29953056,"Carrock Fell",54.693483,-3.022823,655.000000
31361610,"Unknown",54.216450,-2.582560,110.000000
321332094,"Holme Knott",54.300174,-2.545551,343.000000
1479208198,"Castley Knotts",54.360946,-2.553139,350.000000
671492533,"The Knott",54.506321,-2.870811,726.000000
9474095919,"Ladslack Hill",54.707851,-2.540882,447.000000
29958541,"Mellbreak",54.555594,-3.318247,509.000000
434375469,"Dinsdale Pike",54.290750,-2.418283,536.000000
29953941,"Outerside",54.582160,-3.222142,558.000000
9027863773,"Unknown",54.416934,-2.411961,276.000000
29958538,"Gavel Fell",54.554012,-3.367437,522.000000
29765664,"Grange Fell",54.536389,-3.138030,410.000000
8450253467,"Birkrigg Hill",54.257123,-2.625491,197.000000
434372278,"Snaizwold Fell",54.291765,-2.385045,482.000000
29953931,"Grasmoor",54.571614,-3.277869,844.000000
434339776,"Bousfield Howe",54.479696,-2.612700,371.000000
29879309,"Allen Crags",54.466431,-3.179497,778.000000
434338723,"High Pike",54.482940,-2.527550,368.000000
825465719,"Ling Hill",54.399982,-2.348717,402.000000
434335578,"Wyber Hill",54.496965,-2.369719,162.000000
434335600,"Strutforth Hill",54.506036,-2.399330,183.000000
322962432,"Stantling Flow",55.117410,-2.631289,-inf
4997369056,"The Knotts",54.587610,-2.875232,263.000000
434332821,"Haska Rigg",54.507929,-2.211533,-inf
8224450853,"Little Meldrum",54.596834,-2.896094,394.000000
434332763,"Moudy Mea",54.500079,-2.200656,-inf
434332761,"Millstone Howe",54.502946,-2.214151,-inf
3662662757,"Park Hill",54.466911,-2.330533,259.000000
434324314,"Unknown",54.427870,-2.631202,338.000000
1103334763,"Lowick Beacon",54.246128,-3.097051,204.000000
10131997803,"Low Light Haw",54.301761,-3.074593,242.000000
29728740,"High Pike",54.470955,-2.966701,638.000000
434321008,"Unknown",54.389231,-2.817583,177.000000
434318020,"Fusethwaite Yeat",54.405224,-2.896594,269.000000
434315392,"Millrigg Knott",54.403087,-2.827634,295.000000
5284089697,"Fouson's Rigg",54.563793,-2.541806,211.000000
673688039,"High Dodd",54.556238,-2.905895,494.000000
828537950,"Pudding Howe Hill",54.428581,-2.366618,310.000000
434312795,"Grandsire",54.367848,-2.875500,240.000000
9061584675,"Unknown",54.372543,-2.557426,382.000000
5005342017,"Powley's Hill",54.515404,-2.765727,462.000000
5228554228,"Clump Hill",54.544419,-2.357228,249.000000
29766666,"Tarn Crag",54.474277,-3.075975,543.000000
3625447300,"Green Gable",54.485736,-3.213834,781.000000
875623554,"Golden Hill",54.283757,-2.974306,101.000000
29537079,"Iron Band",54.562683,-2.258345,-inf
434312699,"Brant Fell",54.357429,-2.909581,185.000000
9441946177,"Raehow End",54.723819,-2.500985,714.000000
443640095,"Brown Hills",54.565880,-2.966840,549.000000
29953215,"Longlands Fell",54.708393,-3.125269,473.000000
434311962,"Unknown",54.265065,-2.939128,233.000000
9100179209,"Unknown",54.416393,-2.421051,291.000000
434322214,"Unknown",54.405645,-2.774024,381.000000
321506161,"Beacon Hill",54.675254,-2.743850,284.000000
31361604,"Crag Hill",54.244652,-2.473954,678.000000
677102166,"The Dodd",54.567857,-2.824581,529.000000
434311853,"Swainson",54.270513,-2.941946,224.000000
434311802,"The Heights",54.288669,-2.915782,225.000000
434311285,"Capple Barrow",54.353747,-2.891062,189.000000
434310888,"Buck Crag",54.230061,-2.904624,171.000000
7092510832,"Rannerdale Knotts",54.552615,-3.289069,333.000000
434309611,"Lord's Seat",54.276079,-2.858672,211.000000
430116399,"Peel Dod",54.818472,-2.615588,482.000000
434308798,"Unknown",54.237758,-2.909431,214.000000
434308797,"Unknown",54.251027,-2.929772,233.000000
443666018,"Saddler's Knott",54.554554,-3.388331,361.000000
671684081,"Gowk Hill",54.542194,-2.860989,464.000000
434308789,"Unknown",54.245174,-2.917893,219.000000
434308783,"Bigland Barrow",54.247567,-2.977322,186.000000
433635443,"Hard Hill",54.692628,-2.418589,678.000000
29958559,"Great Gable",54.482075,-3.219207,888.000000
29536149,"Tailbridge Hill",54.443483,-2.305211,-inf
434308539,"Unknown",54.253684,-2.976292,173.000000
5228344435,"Plump Hill",54.597809,-2.455786,215.000000
434308538,"Yew Barrow",54.274789,-2.992514,221.000000
434338335,"Little Asby Scar",54.475562,-2.477918,355.000000
434308560,"Barrow Hollin",54.251127,-2.906598,176.000000
11693763281,"Tortree Hill",54.734461,-2.598725,193.000000
4948827393,"The Hawk",54.321244,-3.168251,214.000000
50984240,"Whiteside Pike",54.406849,-2.740025,386.000000
7981503815,"Spy Hill",54.324985,-3.067744,226.000000
443628681,"Unknown",54.648592,-3.008113,509.000000
29958545,"Red Pike",54.527403,-3.298659,741.000000
434307766,"Unknown",54.283308,-2.995862,233.000000
8962688594,"West Fell",54.408166,-2.509859,539.000000
434307747,"Unknown",54.296692,-2.970690,194.000000
434308540,"Unknown",54.254938,-3.000325,161.000000
8411090525,"Barf",54.629638,-3.218115,456.000000
1479208220,"White Fell Head",54.370322,-2.522799,636.000000
918161664,"Tarnmire Hill",54.424800,-2.377628,297.000000
434307746,"Unknown",54.301753,-2.977984,207.000000
11298159666,"Watch Hill",54.674475,-3.304166,250.000000
434306855,"Great Green Hows",54.295782,-2.988137,222.000000
434300634,"Todd Crag",54.426971,-2.985266,202.000000
4559114228,"Rain Hill",54.521615,-2.404321,170.000000
433730648,"Hillbeck Fell",54.575018,-2.292405,-inf
433728362,"Unknown",54.609033,-2.328111,681.000000
1717948612,"Petty Hill",54.564436,-2.269663,-inf
433719399,"Simmerson Hill",54.897322,-2.661535,395.000000
1207420853,"Rough Crag",54.368399,-3.292568,312.000000
433641448,"Slack's Rigg",54.720894,-2.357220,608.000000
1779620834,"Loughrigg Fell",54.437472,-3.008400,325.000000
433638891,"Bellbeaver Rigg",54.710532,-2.370352,616.000000
433637327,"Calvert End",54.714102,-2.405199,666.000000
7880459601,"Unknown",54.533239,-2.916048,383.000000
986753581,"Hoad Hill",54.202514,-3.082842,129.000000
11127004564,"Whatshaw Common",54.448430,-2.707396,480.000000
29877963,"Sca Fell",54.447510,-3.224705,952.000000
773521013,"Holmes Moss Hill",54.351650,-2.388504,473.000000
433624423,"Burney Hill",54.665087,-2.490858,412.000000
433613079,"Black Dub",54.708301,-2.464079,802.000000
9415771245,"Unknown",54.419286,-2.654446,456.000000
433601251,"Muska Hill",54.713358,-2.544502,528.000000
433637095,"Rake End",54.713705,-2.439446,695.000000
433596998,"Cuns Fell",54.724905,-2.548415,527.000000
433584383,"Cawood Hill",54.767416,-2.473091,422.000000
2282499190,"Border End",54.406536,-3.192232,510.000000
1311846439,"Crag Head",54.427506,-3.015116,142.000000
828548827,"Pry Hill",54.366380,-2.338132,383.000000
5190348734,"Crag Hill",54.632228,-3.400019,154.000000
31361606,"Calf Top",54.265359,-2.516767,606.000000
430135700,"Bluecaster",54.366888,-2.445330,337.000000
10159127645,"Castle Wood Hill",54.348699,-2.968246,144.000000
434333487,"Bowber Hill",54.492279,-2.281656,-inf
29728746,"Dove Crag",54.485422,-2.966949,788.000000
433636391,"Unknown",54.693818,-2.391552,579.000000
29951987,"Ullock Pike",54.648255,-3.172494,675.000000
4871717423,"Grey Knotts",54.502307,-3.210112,691.000000
443665028,"Mosser Fell",54.602559,-3.355866,278.000000
2282500335,"Yew Bank",54.417232,-3.184685,487.000000
769600759,"Carron Crag",54.340074,-3.039331,306.000000
430134454,"Knoutberry",54.406288,-2.457017,527.000000
918170759,"Howe Top",54.387051,-2.330292,376.000000
48394298,"Black Combe",54.257752,-3.328576,599.000000
430132591,"Hare Shaw",54.405114,-2.575034,460.000000
4523041823,"Little Calva",54.673259,-3.114528,639.000000
430132008,"Hand Lake",54.401666,-2.545165,485.000000
9439208647,"Noonstones Hill",54.736617,-2.392755,623.000000
4843887460,"High  Hows",54.570095,-3.398767,283.000000
430130949,"Linghaw",54.380836,-2.559140,495.000000
1270106124,"Nine Standards Rigg",54.450091,-2.270716,-inf
434315337,"Unknown",54.400439,-2.856129,253.000000
433601111,"Catterpallot Hill",54.720956,-2.562999,373.000000
8712123504,"Gallows Hill",54.445343,-2.423969,317.000000
349056112,"Hobcarton End",54.600596,-3.247162,628.000000
5829823496,"Lonscale Pike",54.635693,-3.103306,689.000000
29961865,"Haycock",54.484500,-3.321690,796.000000
430130140,"Bush Howe",54.377112,-2.526411,621.000000
4942419635,"Cinder Hill",54.320328,-3.227657,164.000000
29730763,"Watsons Dodd",54.566918,-3.028960,785.000000
11831393362,"High Stile (summit)",54.521784,-3.283658,798.000000
443667059,"Blakely Raise",54.508286,-3.437920,387.000000
3690561516,"Dalton Hill",54.174397,-2.708050,101.000000
434305514,"Unknown",54.347944,-2.996977,228.000000
430129359,"Crook",54.336400,-2.517349,457.000000
430129241,"Arant Haw",54.346075,-2.521353,599.000000
434303236,"High Crag",54.399594,-2.995268,149.000000
430128550,"Calders",54.358488,-2.508162,671.000000
430128517,"Bram Rigg Top",54.362959,-2.511857,670.000000
29533300,"Tarn Rigg Hill",54.319815,-2.400009,678.000000
434345651,"Unknown",54.632967,-2.417183,689.000000
369686620,"Watcher's Hill",54.797914,-2.514582,434.000000
4887979706,"Esk Pike",54.457154,-3.179166,873.000000
1207412134,"Burn Moor",54.320487,-3.306999,542.000000
773499033,"Pump Hill",54.447555,-2.356974,246.000000
11692060530,"Highbanks",54.668036,-2.945303,363.000000
11192972478,"Hagg Hill",54.590050,-2.886919,346.000000
430128320,"Unknown",54.385875,-2.502764,550.000000
430128116,"Hazelgill Knott",54.391416,-2.505827,576.000000
5295669848,"Cowber Hill",54.515899,-2.391438,158.000000
29952016,"Great Calva",54.670733,-3.101114,683.000000
443621329,"Green How",54.727212,-3.153319,319.000000
369686617,"Black Fell",54.793313,-2.548695,662.000000
430127909,"Unknown",54.417726,-2.491349,475.000000
5005341976,"Hugh's Laithes Pike",54.527961,-2.770694,421.000000
560045777,"Beda Fell",54.546470,-2.884403,502.000000
4263075154,"Pillar Rock",54.499736,-3.280708,751.000000
29954490,"Maiden Moor",54.553154,-3.181588,569.000000
1779758644,"Unknown",54.460661,-2.998353,476.000000
29730751,"St Sunday Crag",54.511968,-2.975866,831.000000
430127611,"Unknown",54.377451,-2.483835,591.000000
7829462492,"Sca Fell Pinnacle",54.450395,-3.222650,936.000000
430127108,"Unknown",54.405831,-2.488700,567.000000
11192972481,"Near Belt Hill",54.621084,-2.841007,292.000000
9785213787,"Hunger Hills",54.444743,-2.344029,238.000000
773499293,"Ore Hill",54.449713,-2.327877,317.000000
10870379198,"Copperas Hill",54.604939,-3.568692,46.000000
9047635263,"Powson Knott",54.413521,-2.587826,372.000000
430122652,"Flusco Pike",54.649366,-2.832057,277.000000
29536191,"Wharton Fell",54.426919,-2.359058,337.000000
430116492,"Thack Moor",54.809859,-2.605980,605.000000
10154301787,"High Pate Crag",54.365163,-2.954167,257.000000
4853801295,"Lords Seat",54.565519,-2.836232,574.000000
29953216,"Brae Fell",54.706385,-3.105368,580.000000
9385387454,"Skirwith Hill",54.712768,-2.500041,786.000000
430130104,"Cobles",54.383237,-2.520204,530.000000
774712900,"Mustard Hill",54.332721,-3.046648,271.000000
5007442282,"Lanshaw Hill",54.518406,-2.707243,290.000000
429432575,"Little Fell",54.594009,-2.335103,742.000000
426624927,"Peeping Hill",54.621873,-2.434959,487.000000
420731422,"Broad Crag",54.457758,-3.206552,928.000000
426584590,"Dufton Pike",54.633878,-2.466556,467.000000
433636496,"Unknown",54.688907,-2.370867,581.000000
426584144,"BluethwaiteHill",54.634977,-2.452525,401.000000
11191742601,"Smaithwaite How",54.568081,-3.064350,196.000000
433670279,"Lingy Hill",54.767816,-2.439833,422.000000
4869919087,"Hatteringill Head",54.610023,-3.342067,379.000000
29961844,"Pillar",54.497481,-3.281181,883.000000
560046069,"Yoke",54.452915,-2.868727,702.000000
9415771225,"Dennsion Hill",54.428997,-2.670690,456.000000
418322732,"Unknown",54.772478,-2.452123,382.000000
366051435,"Watch Hill",54.925279,-3.074414,21.000000
4943641646,"Rough how",54.355585,-3.275730,256.000000
443664878,"Smithy Fell",54.601250,-3.343355,388.000000
321362837,"Whinash",54.427191,-2.661895,466.000000
333587209,"Dodd",54.530131,-3.293619,632.000000
8494660378,"Unknown",54.314835,-2.789433,228.000000
323138763,"Black Hill",54.795343,-2.323272,-inf
6895058852,"Brown Pike",54.359415,-3.138782,670.000000
1717948968,"Shotmoss Hill",54.568629,-2.272067,-inf
29764877,"Tarn Crag",54.463449,-2.790662,659.000000
29876667,"Grey Friar",54.393347,-3.141067,771.000000
1571886284,"High Howes",54.485898,-2.792218,671.000000
10870142000,"Unknown",54.308147,-3.062799,299.000000
323103646,"Crookburn Pike",54.860560,-2.601246,520.000000
2329497373,"Metalband Hill",54.699974,-2.357259,560.000000
29730760,"Sheffield Pike",54.554890,-2.976994,669.000000
434313464,"Banner Rigg",54.387043,-2.884693,257.000000
5000075413,"Brown Howe",54.466251,-2.831960,705.000000
1484688608,"Stickle Pike",54.324496,-3.213183,354.000000
322957346,"Christianbury Crag",55.134077,-2.664771,-inf
321811440,"Skiddaw",54.651385,-3.147771,923.000000
321363483,"Whinfell Beacon",54.396233,-2.658049,464.000000
322957365,"Hangingstone Crag",55.128147,-2.655449,-inf
4433307198,"Whiteside",54.540919,-3.025051,860.000000
828546334,"Foulmart Hill",54.366105,-2.361843,494.000000
560045801,"Steel Knotts",54.555242,-2.866807,415.000000
9584848047,"Unknown",54.851314,-2.673497,437.000000
434333492,"Unknown",54.471186,-2.284660,-inf
29953928,"Grisedale Pike",54.591734,-3.242149,778.000000
918161426,"Bullhouse Hill",54.423484,-2.385521,298.000000
53942083,"Fairfield",54.497052,-2.991630,871.000000
29951949,"Skiddaw Little Man",54.639908,-3.137621,851.000000
321363044,"Mabbin Crag",54.413510,-2.671442,477.000000
8959212981,"Green Bell",54.404278,-2.465673,605.000000
5068700595,"Coats Hill",54.317379,-3.102390,155.000000
443622507,"Miton Hill",54.696677,-3.040884,598.000000
448774429,"Baystones",54.438183,-2.921723,478.000000
433618160,"Little Dun Fell",54.691257,-2.460131,839.000000
5812334788,"Whiteside East Top",54.587463,-3.279701,674.000000
29728742,"Middle Dodd",54.477985,-2.931517,643.000000
434337747,"Great Ewe Fell",54.458615,-2.460957,362.000000
29877961,"Whin Rigg",54.420219,-3.309753,524.000000
4690140963,"Angletarn Pikes South Top",54.524179,-2.906361,550.000000
832644097,"Ulgraves",54.389487,-2.755748,326.000000
318497932,"Knock Fell",54.666551,-2.433609,791.000000
314584074,"Robin Hood",54.446270,-2.726294,484.000000
4859971870,"Sale How",54.647798,-3.122552,662.000000
369686622,"Scarberry Hill",54.787098,-2.500824,596.000000
290288924,"Orrest Head",54.386289,-2.903814,230.000000
262695292,"Lining Crag",54.491228,-3.108423,518.000000
3690558139,"Hanging Hill",54.182032,-2.732141,84.000000
29961846,"Steeple",54.493355,-3.302197,784.000000
471328491,"Black Crag",54.493379,-3.289159,819.000000
206184886,"Knock Murton",54.558740,-3.401504,438.000000
29730759,"Birkhouse Moor",54.534998,-2.985311,712.000000
9401995464,"Cringley Hill",54.595909,-2.414459,335.000000
31361608,"Castle Knott",54.251832,-2.528730,529.000000
434318245,"The Howe",54.410980,-2.903165,229.000000
4880267012,"Unknown",54.689101,-3.136189,468.000000
253376761,"East Summit",54.569066,-3.220596,541.000000
29535848,"Wild Boar Fell",54.384369,-2.374191,707.000000
5295457220,"Sourlands Hill",54.529678,-2.408767,189.000000
443664221,"Harrot",54.634862,-3.303853,277.000000
443639607,"High Brow",54.583979,-2.979561,569.000000
6801532813,"Unknown",54.553987,-3.083205,420.000000
482213395,"High Pike Hill",54.424589,-2.304756,-inf
29765655,"High Rigg",54.588391,-3.071508,346.000000
434309710,"Unknown",54.264113,-2.847632,193.000000
4943727029,"Rowantree How",54.350365,-3.300048,409.000000
11693763200,"Fetherston Hill",54.764289,-2.686640,109.000000
29728748,"Great Rigg",54.484893,-2.995703,759.000000
31392822,"Unknown",54.246579,-2.706499,82.000000
676847378,"Brock Crag",54.562644,-2.847820,557.000000
29953561,"Ling Fell",54.645288,-3.272231,374.000000
4559114227,"Tewfill Hill",54.508811,-2.428847,220.000000
443623808,"Unknown",54.669969,-3.023997,662.000000
29728749,"Seat Sandal",54.494852,-3.014000,729.000000
723966565,"Heughscar Hill",54.600958,-2.793858,375.000000
434311844,"Birch Fell",54.294280,-2.931317,314.000000
560045979,"Caudale Moor",54.482633,-2.907845,753.000000
443622364,"Mickle Rigg",54.721957,-3.132033,309.000000
31361605,"Great Coum",54.247104,-2.462483,683.000000
8989402355,"Gelstone Hill",54.422526,-2.578341,329.000000
571671250,"Combe Top",54.279380,-2.500931,521.000000
443638163,"Great How",54.559578,-3.063181,325.000000
4899815832,"Irton Pike",54.401716,-3.355941,213.000000
5230399894,"Green Pike",54.572157,-2.286783,-inf
31361603,"Green Hill",54.228770,-2.459243,625.000000
10057963047,"Unknown",54.408038,-2.701504,267.000000
426628523,"Murton Fell",54.610902,-2.375878,671.000000
9404289117,"Long Man Hill",54.729925,-2.430982,658.000000
4942419638,"Tarn Hill",54.318533,-3.216529,306.000000
10132092579,"Great Hill",54.318020,-3.067602,310.000000
31361427,"Newbiggin Crags",54.210654,-2.693925,241.000000
434311845,"Sow How",54.279952,-2.932568,257.000000
1159033974,"Unknown",54.454278,-2.668335,395.000000
434337814,"Unknown",54.447737,-2.501640,315.000000
8407752064,"Lord's Seat",54.627791,-3.233924,544.000000
25255570,"Silver How",54.450680,-3.042894,384.000000
426573685,"Unknown",54.667292,-2.392516,738.000000
29961859,"Buckbarrow",54.443154,-3.334241,409.000000
29958547,"High Stile (Wainwright summit)",54.521545,-3.287841,799.000000
3639477427,"Knott Hill",54.274557,-3.269153,272.000000
29954139,"Castle Crag",54.533181,-3.161514,267.000000
29953942,"Barrow",54.585694,-3.197464,443.000000
383982837,"Top o' Selside (Wainwright)",54.317645,-3.065217,325.000000
29953940,"Causey Pike",54.576792,-3.210081,609.000000
9867801300,"Unknown",54.369589,-2.998023,89.000000
443666347,"Keltonfell Top",54.552015,-3.423071,288.000000
429432286,"Unknown",54.605370,-2.348299,686.000000
5036643029,"Whiteside (Wainwright)",54.585907,-3.285148,695.000000
433699361,"Unknown",54.767915,-2.367872,585.000000
434321790,"Unknown",54.406669,-2.788744,419.000000
278205458,"Red Beck Top",54.477312,-3.170353,712.000000
278205457,"Unknown",54.481367,-3.165361,770.000000
434302804,"Tom Heights",54.394728,-3.036208,254.000000
4684934449,"Plough Fell",54.308788,-3.290037,445.000000
29953933,"Whiteless Pike",54.559429,-3.269336,629.000000
29535876,"Little Fell",54.403980,-2.360954,550.000000
9840747233,"Seat",54.509732,-3.259336,553.000000
31519685,"Lower Man",54.530909,-3.025291,905.000000
29953566,"Whinlatter",54.613065,-3.245526,516.000000
4263075153,"Looking Stead",54.494982,-3.257725,612.000000
29953929,"Hopegill Head",54.588048,-3.261685,753.000000
29953560,"Sale Fell",54.655611,-3.250122,352.000000
10864350956,"Unknown",54.382676,-2.829047,226.000000
29953213,"Knott",54.686982,-3.093281,709.000000
434322172,"Birk Rigg",54.415510,-2.815609,313.000000
830416429,"The Beacon",54.306853,-3.110989,245.000000
434321775,"Unknown",54.403547,-2.801533,421.000000
29958551,"Fleetwith Pike",54.516545,-3.228137,636.000000
29764880,"Branstree",54.482681,-2.807569,712.000000
5004960311,"Aika Hill",54.544112,-2.772068,335.000000
10864303637,"Dan Hill",54.379495,-2.827097,151.000000
3484890828,"Dent",54.502160,-3.481283,348.000000
773499207,"Sleighgate Hill",54.448417,-2.349223,234.000000
29728745,"Hartsop Above How",54.499604,-2.953909,562.000000
4942096234,"Blea Tarn Hill",54.402232,-3.284426,281.000000
5007276399,"Muddy Brow",54.407239,-2.699600,275.000000
323137638,"Nunnery Hill",54.780470,-2.361632,592.000000
434311774,"Raven's Barrow",54.283408,-2.906426,153.000000
2188787282,"Kerris Hill",54.359278,-2.833152,221.000000
10271130305,"Unknown",54.278865,-2.936925,252.000000
29952585,"Mungrisdale Common",54.653141,-3.068195,631.000000
11009802717,"The Pike",54.329699,-3.252670,354.000000
9842413284,"Unknown",54.561229,-3.463488,207.000000
5632382720,"Innominate Peak",54.504312,-3.241034,525.000000
278205461,"Combe Door",54.487945,-3.156091,658.000000
443641439,"Pike",54.586834,-3.105820,346.000000
8959238907,"Kensgriff",54.387875,-2.481377,556.000000
5480592821,"Walla Crag",54.581561,-3.120328,367.000000
29951971,"Long Side",54.645480,-3.165470,723.000000
11239916198,"Knotts",54.337076,-2.581776,292.000000
29953562,"Graystones",54.626799,-3.275401,450.000000
29951965,"Dodd",54.635615,-3.172133,495.000000
5024374009,"Scar Crags",54.575013,-3.225929,652.000000
4994423871,"Low How",54.585133,-2.969474,489.000000
3100118998,"Long Pike",54.463342,-3.199428,827.000000
560045782,"Place Fell",54.544271,-2.920702,646.000000
8615290124,"Ashstead Fell",54.418171,-2.680189,462.000000
29961854,"Yewbarrow",54.464901,-3.276824,606.000000
10226056975,"Unknown",54.366902,-2.855131,242.000000
698522660,"Ill Crag",54.455638,-3.199756,912.000000
434302814,"Little Fell",54.414099,-3.046465,203.000000
29879311,"Rosthwaite Cam",54.496195,-3.150465,597.000000
4996473489,"Bald Howe",54.603380,-2.919682,273.000000
1479235898,"Petty Brow",54.452700,-2.370645,289.000000
4885256363,"Coldbarrow Fell",54.508296,-3.101686,629.000000
29961852,"Red Pike",54.483916,-3.289871,807.000000
4948866797,"Pikes",54.342792,-3.174526,456.000000
482213396,"Gregory Chapel",54.397080,-2.305496,-inf
2123602545,"Wetherlam",54.400508,-3.098037,755.000000
29877966,"Lingmell",54.462810,-3.221278,797.000000
10289236418,"Linn",54.416168,-3.336666,119.000000
8771834092,"Starling Dodd",54.529724,-3.327207,630.000000
29766660,"Eagle Crag",54.499069,-3.120452,503.000000
10289236417,"Irton Fell",54.411741,-3.320832,392.000000
8712077545,"Park Hill",54.436637,-2.428834,266.000000
29766659,"Ullscarf",54.499905,-3.095492,722.000000
29877964,"Slight Side",54.434388,-3.219538,747.000000
4559114223,"Codgy Bank",54.504787,-2.414683,192.000000
443623007,"Unknown",54.695256,-3.081888,608.000000
430127453,"Randygill Top",54.394863,-2.483427,620.000000
29765661,"High Tove",54.538816,-3.100214,510.000000
29958535,"Burnbank Fell",54.575958,-3.378366,473.000000
29877962,"Illgill Head",54.432929,-3.282593,605.000000
671492526,"High Raise",54.513384,-2.853878,802.000000
29765660,"High Seat",54.552611,-3.103718,602.000000
4942172699,"Wonder Hill",54.376600,-3.273862,189.000000
29047328,"Sallows",54.428119,-2.870043,511.000000
7249633887,"Capple Howe",54.418391,-2.876189,438.000000
773522606,"Sool Rigg",54.315280,-2.478047,190.000000
430130374,"Fell Head",54.377914,-2.540975,631.000000
9174568403,"Howe Robin",54.483678,-2.583233,372.000000
8959212953,"Denamire Hill",54.435120,-2.463103,250.000000
433631647,"Knock Pike",54.648292,-2.488305,392.000000
2173306722,"Little Stand",54.420855,-3.156658,734.000000
443621457,"Aughertree Fell",54.730303,-3.140675,301.000000
29765658,"Raven Crag",54.559290,-3.078773,453.000000
1550237866,"Symonds Knott",54.449845,-3.223567,946.000000
29877472,"Hard Knott",54.410956,-3.184954,539.000000
29879310,"Glaramara",54.483825,-3.165259,776.000000
10296444962,"Dog Hill",54.520705,-2.724113,311.000000
426860396,"Harton Crag",54.546885,-2.221353,-inf
5632381838,"Seavy Knott",54.500243,-3.231122,530.000000
29877467,"Cold Pike",54.422597,-3.137598,690.000000
433618223,"Great Dun Fell",54.684145,-2.451569,847.000000
29877459,"Lingmoor Fell",54.432065,-3.076424,464.000000
3102388038,"Cofa Pike",54.499901,-2.991868,796.000000
4943727028,"Woodend Height",54.346865,-3.299901,473.000000
2150122077,"Scout Hill",54.237395,-2.669643,280.000000
31390029,"Arnside Knott",54.190227,-2.835190,159.000000
29728728,"Nab Scar",54.456416,-2.995804,449.000000
29877463,"Pike of Blisco",54.428043,-3.124897,690.000000
434375868,"Helms Knott",54.301156,-2.488030,295.000000
7111594444,"Wandope",54.566313,-3.257059,752.000000
2462716265,"Nabs Moor",54.490836,-2.770358,499.000000
50984234,"Brunt Knott",54.398444,-2.795644,420.000000
29958548,"High Crag",54.514606,-3.267402,732.000000
443632024,"Unknown",54.591326,-2.985520,537.000000
29766670,"High Raise",54.475967,-3.111251,757.000000
4897275660,"Ponsonby Fell",54.450479,-3.417097,311.000000
29876663,"Holme Fell",54.396282,-3.056495,304.000000
560046355,"Harter Fell",54.476420,-2.835336,775.000000
5036578372,"Unknown",54.575345,-3.254377,793.000000
29877970,"Seathwaite Fell",54.481120,-3.191416,591.000000
1202328214,"Unknown",54.900365,-2.671809,378.000000
29876657,"Dow Crag",54.370284,-3.136639,769.000000
560045753,"High Knott",54.393695,-2.842003,267.000000
5130368235,"Setrah Hill",54.716828,-3.268551,195.000000
29532668,"Great Knoutberry Hill",54.279621,-2.326149,670.000000
7965868526,"Newtown Knott",54.345487,-3.395028,70.000000
29728741,"Red Screes",54.470616,-2.932671,773.000000
29765662,"Armboth Fell",54.534119,-3.088482,467.000000
3465596526,"Harlock Hill",54.208743,-3.145081,232.000000
9840673052,"Christopher Brow Top",54.443114,-2.368469,300.000000
9516186607,"Little Blacklaw Hill",54.869644,-2.588462,580.000000
29728729,"Heron Pike",54.466133,-2.995113,598.000000
5004960310,"Pinnacle Howe",54.543452,-2.778652,370.000000
5137226285,"Summerground Crags",54.677599,-2.899546,360.000000
29953211,"Great Cockup",54.689666,-3.128754,519.000000
10131997802,"High Light Haw",54.304870,-3.071683,258.000000
29728739,"Low Pike",54.462092,-2.967968,486.000000
29764891,"Rest Dodd",54.514951,-2.877968,692.000000
29536152,"Unknown",54.426502,-2.348690,341.000000
29765657,"Bleaberry Fell",54.566396,-3.106334,586.000000
4845777780,"Brown How",54.614857,-3.254044,505.000000
323105979,"Watch Hill",54.808238,-2.581341,601.000000
434323344,"Greenside Crag",54.434810,-2.681885,482.000000
4941873681,"Brats Hill",54.410382,-3.274300,263.000000
560046584,"Wasdale Pike",54.469782,-2.715922,564.000000
29730754,"Arnison Crag",54.526302,-2.938570,413.000000
433995859,"Great Black Hill",54.484066,-2.184338,-inf
560045790,"Sleet Fell",54.563007,-2.894137,354.000000
773521631,"Black Hill",54.325730,-2.414038,646.000000
10068194591,"Unknown",54.344112,-2.849068,172.000000
434312852,"School Knott",54.368994,-2.885888,223.000000
9735441548,"Sleddale Pike",54.478844,-2.717898,490.000000
29766674,"Loft Crag",54.454461,-3.115982,663.000000
4433249092,"Thirdgill Head Man",54.565158,-3.264233,724.000000
443630080,"Lofshaw Hill",54.641821,-2.951788,307.000000
1159023745,"Orton Scar",54.481860,-2.585128,369.000000
773523612,"Mill Beck Hill",54.278351,-2.466030,194.000000
29954492,"Cat Bells",54.568352,-3.170661,438.000000
426595735,"Meldon Hill",54.655948,-2.355738,763.000000
418322723,"Hartside Height",54.777463,-2.544453,622.000000
29730767,"Gowbarrow Fell",54.588106,-2.918157,470.000000
29958550,"Hay Stacks",54.507212,-3.247253,591.000000
29952049,"Bakestall",54.666354,-3.139066,671.000000
2177553040,"Green Bank",54.322887,-2.643210,330.000000
3625447306,"Kirk Fell East Top",54.485293,-3.237665,775.000000
29766672,"Pavey Ark",54.461471,-3.105245,677.000000
4948779694,"Raven's Crag",54.322678,-3.194458,329.000000
29730762,"Stybarrow Dodd",54.561110,-3.017445,840.000000
373110433,"Rowling End",54.575567,-3.193774,419.000000
8450253265,"Great Hill",54.241560,-2.686281,185.000000
29952587,"Bannerdale Crags",54.651927,-3.031404,683.000000
6786661694,"Hare Hill",54.057097,-3.217485,13.000000
29018477,"Ill Bell",54.461956,-2.870809,743.000000
9951153977,"Burn Banks",54.540136,-2.775038,352.000000
429432742,"Burton Fell",54.585629,-2.344823,644.000000
29535851,"Swarth Fell",54.364968,-2.377240,678.000000
29951936,"Latrigg",54.612441,-3.117948,358.000000
448891079,"The Knowe",54.471846,-2.836345,761.000000
5005342004,"Hare Shaw",54.511944,-2.777025,496.000000
434305513,"Unknown",54.354797,-3.012770,252.000000
9838797655,"Weddicar Rigg",54.558867,-3.514458,209.000000
434308996,"Unknown",54.226298,-2.900933,170.000000
430136526,"Over Sale",54.389469,-2.536707,524.000000
443621695,"Low Rigg",54.595069,-3.080416,263.000000
4878534541,"Snipes How",54.580897,-3.091354,234.000000
9384058418,"Cross Fell",54.702937,-2.486707,890.000000
29766663,"Steel Fell",54.491158,-3.052159,544.000000
3465596822,"Horrace Hill",54.206742,-3.129041,231.000000
29536151,"Green Law Rigg",54.419484,-2.360999,399.000000
7331827972,"Winnow",54.240296,-3.154598,265.000000
4948867616,"White Pike",54.349989,-3.156374,586.000000
430129468,"Winder",54.333839,-2.533725,465.000000
29953057,"High Pike",54.705418,-3.058736,655.000000
29730755,"Helvellyn",54.526990,-3.017604,941.000000
7342917895,"Gray Crags",54.245569,-3.137250,332.000000
426582385,"Unknown",54.643596,-2.426089,697.000000
430127890,"Hooksey",54.401217,-2.485856,568.000000
4941873785,"Boat How",54.416140,-3.271536,312.000000
29766667,"Blea Rigg",54.461070,-3.078750,530.000000
